{"ast":null,"code":"var _jsxFileName = \"C:\\\\seemanti\\\\projects\\\\my-test-proj\\\\src\\\\dashboard.js\";\nimport React from 'react';\nimport { Map, GoogleApiWrapper, Marker } from 'google-maps-react';\nimport { Container, Jumbotron, Row, Col, ListGroup, ListGroupItem } from 'react-bootstrap';\nconst mapStyles = {\n  width: '100vh',\n  height: '100%'\n};\nlet myLatLng = {\n  lat: '22.5726',\n  lng: '88.3639'\n};\n\nclass Dashboard extends React.Component {\n  constructor(props) {\n    super(props);\n    console.log(this.props.username);\n  }\n\n  buttonClick(val) {\n    console.log(val);\n    this.myLatLng = {\n      lat: val.lat,\n      lng: val.lng\n    };\n\n    if (this.props.google) {\n      console.log(this.props.google);\n    }\n  }\n\n  render() {\n    let cityList = [{\n      id: 1,\n      name: 'Delhi',\n      lat: '28.7041',\n      lng: '77.1025'\n    }, {\n      id: 2,\n      name: 'Mumbai',\n      lat: '19.0760',\n      lng: '72.8777'\n    }, {\n      id: 3,\n      name: 'Kolkata',\n      lat: '22.5726',\n      lng: '88.3639'\n    }, {\n      id: 4,\n      name: 'Channai',\n      lat: '13.0827',\n      lng: '80.2707'\n    }, {\n      id: 5,\n      name: 'Pune',\n      lat: '18.5204',\n      lng: '73.8567'\n    }, {\n      id: 6,\n      name: 'Bangalore',\n      lat: '12.9716',\n      lng: '77.5946'\n    }, {\n      id: 7,\n      name: 'Hyderabad',\n      lat: '17.3850',\n      lng: '78.4867'\n    }, {\n      id: 8,\n      name: 'Kochi',\n      lat: '9.9312',\n      lng: '76.2673'\n    }];\n    let cityNames = cityList.map(data => {\n      return React.createElement(\"li\", {\n        key: data.id,\n        __source: {\n          fileName: _jsxFileName,\n          lineNumber: 88\n        },\n        __self: this\n      }, React.createElement(\"a\", {\n        href: \"#\",\n        style: {\n          textDecoration: 'none'\n        },\n        onClick: () => this.buttonClick(data),\n        __source: {\n          fileName: _jsxFileName,\n          lineNumber: 88\n        },\n        __self: this\n      }, data.name));\n    });\n    let displayMarkers = cityList.map(data => {\n      return React.createElement(Marker, {\n        key: data.id,\n        position: {\n          lat: data.lat,\n          lng: data.lng\n        },\n        __source: {\n          fileName: _jsxFileName,\n          lineNumber: 93\n        },\n        __self: this\n      });\n    });\n    var points = [{\n      lat: 22.02,\n      lng: 77.01\n    }, {\n      lat: 22.03,\n      lng: 77.02\n    }, {\n      lat: 22.03,\n      lng: 77.04\n    }, {\n      lat: 22.05,\n      lng: 77.02\n    }];\n    var bounds = new this.props.google.maps.LatLngBounds();\n\n    for (var i = 0; i < points.length; i++) {\n      bounds.extend(points[i]);\n    }\n\n    return React.createElement(Container, {\n      __source: {\n        fileName: _jsxFileName,\n        lineNumber: 108\n      },\n      __self: this\n    }, React.createElement(Jumbotron, {\n      __source: {\n        fileName: _jsxFileName,\n        lineNumber: 109\n      },\n      __self: this\n    }, React.createElement(\"h3\", {\n      __source: {\n        fileName: _jsxFileName,\n        lineNumber: 110\n      },\n      __self: this\n    }, \"Hello User \", this.props.username, \" \")), React.createElement(Row, {\n      __source: {\n        fileName: _jsxFileName,\n        lineNumber: 112\n      },\n      __self: this\n    }, React.createElement(Col, {\n      __source: {\n        fileName: _jsxFileName,\n        lineNumber: 113\n      },\n      __self: this\n    }, React.createElement(\"h3\", {\n      __source: {\n        fileName: _jsxFileName,\n        lineNumber: 114\n      },\n      __self: this\n    }, \"Lists Of Cities\"), React.createElement(ListGroup, {\n      __source: {\n        fileName: _jsxFileName,\n        lineNumber: 115\n      },\n      __self: this\n    }, React.createElement(ListGroupItem, {\n      active: true,\n      tag: \"a\",\n      href: \"#\",\n      action: true,\n      __source: {\n        fileName: _jsxFileName,\n        lineNumber: 116\n      },\n      __self: this\n    }))), React.createElement(Col, {\n      __source: {\n        fileName: _jsxFileName,\n        lineNumber: 122\n      },\n      __self: this\n    }, React.createElement(Map, {\n      id: \"mymap\",\n      google: this.props.google,\n      zoom: 5,\n      style: mapStyles,\n      initialCenter: {\n        lat: 22.5726,\n        lng: 77.3639\n      },\n      bounds: bounds,\n      __source: {\n        fileName: _jsxFileName,\n        lineNumber: 123\n      },\n      __self: this\n    }, displayMarkers))));\n  }\n\n}\n\nexport default GoogleApiWrapper({\n  apiKey: 'AIzaSyAwu42ZjnzWV4-LQe5-t72Ujt3OykdqZ_w'\n})(Dashboard);","map":{"version":3,"sources":["C:/seemanti/projects/my-test-proj/src/dashboard.js"],"names":["React","Map","GoogleApiWrapper","Marker","Container","Jumbotron","Row","Col","ListGroup","ListGroupItem","mapStyles","width","height","myLatLng","lat","lng","Dashboard","Component","constructor","props","console","log","username","buttonClick","val","google","render","cityList","id","name","cityNames","map","data","textDecoration","displayMarkers","points","bounds","maps","LatLngBounds","i","length","extend","apiKey"],"mappings":";AAAA,OAAOA,KAAP,MAAkB,OAAlB;AACA,SAASC,GAAT,EAAcC,gBAAd,EAAgCC,MAAhC,QAA8C,mBAA9C;AACA,SAASC,SAAT,EAAoBC,SAApB,EAA+BC,GAA/B,EAAoCC,GAApC,EAAyCC,SAAzC,EAAoDC,aAApD,QAAyE,iBAAzE;AAGA,MAAMC,SAAS,GAAG;AACdC,EAAAA,KAAK,EAAE,OADO;AAEdC,EAAAA,MAAM,EAAE;AAFM,CAAlB;AAKA,IAAIC,QAAQ,GAAG;AACXC,EAAAA,GAAG,EAAE,SADM;AAEXC,EAAAA,GAAG,EAAE;AAFM,CAAf;;AAKA,MAAMC,SAAN,SAAwBhB,KAAK,CAACiB,SAA9B,CAAwC;AAEpCC,EAAAA,WAAW,CAACC,KAAD,EAAQ;AACf,UAAMA,KAAN;AACAC,IAAAA,OAAO,CAACC,GAAR,CAAY,KAAKF,KAAL,CAAWG,QAAvB;AACH;;AAEDC,EAAAA,WAAW,CAACC,GAAD,EAAK;AACZJ,IAAAA,OAAO,CAACC,GAAR,CAAYG,GAAZ;AAEA,SAAKX,QAAL,GAAgB;AACZC,MAAAA,GAAG,EAAGU,GAAG,CAACV,GADE;AAEZC,MAAAA,GAAG,EAAGS,GAAG,CAACT;AAFE,KAAhB;;AAIA,QAAG,KAAKI,KAAL,CAAWM,MAAd,EAAqB;AACjBL,MAAAA,OAAO,CAACC,GAAR,CAAY,KAAKF,KAAL,CAAWM,MAAvB;AACH;AACJ;;AACDC,EAAAA,MAAM,GAAG;AACL,QAAIC,QAAQ,GAAG,CACX;AACIC,MAAAA,EAAE,EAAG,CADT;AAEIC,MAAAA,IAAI,EAAG,OAFX;AAGIf,MAAAA,GAAG,EAAG,SAHV;AAIIC,MAAAA,GAAG,EAAG;AAJV,KADW,EAOX;AACIa,MAAAA,EAAE,EAAG,CADT;AAEIC,MAAAA,IAAI,EAAG,QAFX;AAGIf,MAAAA,GAAG,EAAG,SAHV;AAIIC,MAAAA,GAAG,EAAG;AAJV,KAPW,EAaX;AACIa,MAAAA,EAAE,EAAG,CADT;AAEIC,MAAAA,IAAI,EAAG,SAFX;AAGIf,MAAAA,GAAG,EAAG,SAHV;AAIIC,MAAAA,GAAG,EAAG;AAJV,KAbW,EAmBX;AACIa,MAAAA,EAAE,EAAG,CADT;AAEIC,MAAAA,IAAI,EAAG,SAFX;AAGIf,MAAAA,GAAG,EAAG,SAHV;AAIIC,MAAAA,GAAG,EAAG;AAJV,KAnBW,EAyBX;AACIa,MAAAA,EAAE,EAAG,CADT;AAEIC,MAAAA,IAAI,EAAG,MAFX;AAGIf,MAAAA,GAAG,EAAG,SAHV;AAIIC,MAAAA,GAAG,EAAG;AAJV,KAzBW,EA+BX;AACIa,MAAAA,EAAE,EAAG,CADT;AAEIC,MAAAA,IAAI,EAAG,WAFX;AAGIf,MAAAA,GAAG,EAAG,SAHV;AAIIC,MAAAA,GAAG,EAAG;AAJV,KA/BW,EAqCX;AACIa,MAAAA,EAAE,EAAG,CADT;AAEIC,MAAAA,IAAI,EAAG,WAFX;AAGIf,MAAAA,GAAG,EAAG,SAHV;AAIIC,MAAAA,GAAG,EAAG;AAJV,KArCW,EA2CX;AACIa,MAAAA,EAAE,EAAG,CADT;AAEIC,MAAAA,IAAI,EAAG,OAFX;AAGIf,MAAAA,GAAG,EAAG,QAHV;AAIIC,MAAAA,GAAG,EAAG;AAJV,KA3CW,CAAf;AAmDA,QAAIe,SAAS,GAAGH,QAAQ,CAACI,GAAT,CAAaC,IAAI,IAAI;AACjC,aACI;AAAI,QAAA,GAAG,EAAEA,IAAI,CAACJ,EAAd;AAAA;AAAA;AAAA;AAAA;AAAA;AAAA,SAAkB;AAAG,QAAA,IAAI,EAAC,GAAR;AAAY,QAAA,KAAK,EAAE;AAAEK,UAAAA,cAAc,EAAE;AAAlB,SAAnB;AAAgD,QAAA,OAAO,EAAE,MAAM,KAAKV,WAAL,CAAiBS,IAAjB,CAA/D;AAAA;AAAA;AAAA;AAAA;AAAA;AAAA,SAAwFA,IAAI,CAACH,IAA7F,CAAlB,CADJ;AAGH,KAJe,CAAhB;AAKA,QAAIK,cAAc,GAAGP,QAAQ,CAACI,GAAT,CAAaC,IAAI,IAAI;AACtC,aACI,oBAAC,MAAD;AAAQ,QAAA,GAAG,EAAEA,IAAI,CAACJ,EAAlB;AAAsB,QAAA,QAAQ,EAAE;AAAEd,UAAAA,GAAG,EAAGkB,IAAI,CAAClB,GAAb;AAAkBC,UAAAA,GAAG,EAAGiB,IAAI,CAACjB;AAA7B,SAAhC;AAAA;AAAA;AAAA;AAAA;AAAA;AAAA,QADJ;AAGH,KAJoB,CAArB;AAKA,QAAIoB,MAAM,GAAG,CACT;AAAErB,MAAAA,GAAG,EAAE,KAAP;AAAcC,MAAAA,GAAG,EAAE;AAAnB,KADS,EAET;AAAED,MAAAA,GAAG,EAAE,KAAP;AAAcC,MAAAA,GAAG,EAAE;AAAnB,KAFS,EAGT;AAAED,MAAAA,GAAG,EAAE,KAAP;AAAcC,MAAAA,GAAG,EAAE;AAAnB,KAHS,EAIT;AAAED,MAAAA,GAAG,EAAE,KAAP;AAAcC,MAAAA,GAAG,EAAE;AAAnB,KAJS,CAAb;AAMA,QAAIqB,MAAM,GAAG,IAAI,KAAKjB,KAAL,CAAWM,MAAX,CAAkBY,IAAlB,CAAuBC,YAA3B,EAAb;;AACA,SAAK,IAAIC,CAAC,GAAG,CAAb,EAAgBA,CAAC,GAAGJ,MAAM,CAACK,MAA3B,EAAmCD,CAAC,EAApC,EAAwC;AACpCH,MAAAA,MAAM,CAACK,MAAP,CAAcN,MAAM,CAACI,CAAD,CAApB;AACX;;AAEO,WACI,oBAAC,SAAD;AAAA;AAAA;AAAA;AAAA;AAAA;AAAA,OACI,oBAAC,SAAD;AAAA;AAAA;AAAA;AAAA;AAAA;AAAA,OACI;AAAA;AAAA;AAAA;AAAA;AAAA;AAAA,sBAAgB,KAAKpB,KAAL,CAAWG,QAA3B,MADJ,CADJ,EAII,oBAAC,GAAD;AAAA;AAAA;AAAA;AAAA;AAAA;AAAA,OACI,oBAAC,GAAD;AAAA;AAAA;AAAA;AAAA;AAAA;AAAA,OACI;AAAA;AAAA;AAAA;AAAA;AAAA;AAAA,yBADJ,EAEI,oBAAC,SAAD;AAAA;AAAA;AAAA;AAAA;AAAA;AAAA,OACI,oBAAC,aAAD;AAAe,MAAA,MAAM,MAArB;AAAsB,MAAA,GAAG,EAAC,GAA1B;AAA8B,MAAA,IAAI,EAAC,GAAnC;AAAuC,MAAA,MAAM,MAA7C;AAAA;AAAA;AAAA;AAAA;AAAA;AAAA,MADJ,CAFJ,CADJ,EAUI,oBAAC,GAAD;AAAA;AAAA;AAAA;AAAA;AAAA;AAAA,OACI,oBAAC,GAAD;AAAK,MAAA,EAAE,EAAC,OAAR;AACI,MAAA,MAAM,EAAE,KAAKH,KAAL,CAAWM,MADvB;AAEI,MAAA,IAAI,EAAE,CAFV;AAGI,MAAA,KAAK,EAAEf,SAHX;AAII,MAAA,aAAa,EAAE;AAAEI,QAAAA,GAAG,EAAE,OAAP;AAAgBC,QAAAA,GAAG,EAAE;AAArB,OAJnB;AAKI,MAAA,MAAM,EAAEqB,MALZ;AAAA;AAAA;AAAA;AAAA;AAAA;AAAA,OASKF,cATL,CADJ,CAVJ,CAJJ,CADJ;AA+BH;;AA1HmC;;AA4HxC,eAAehC,gBAAgB,CAAC;AAC5BwC,EAAAA,MAAM,EAAE;AADoB,CAAD,CAAhB,CAEV1B,SAFU,CAAf","sourcesContent":["import React from 'react';\r\nimport { Map, GoogleApiWrapper, Marker } from 'google-maps-react';\r\nimport { Container, Jumbotron, Row, Col, ListGroup, ListGroupItem } from 'react-bootstrap';\r\n\r\n\r\nconst mapStyles = {\r\n    width: '100vh',\r\n    height: '100%'\r\n}\r\n\r\nlet myLatLng = {\r\n    lat: '22.5726',\r\n    lng: '88.3639'\r\n};\r\n   \r\nclass Dashboard extends React.Component {\r\n\r\n    constructor(props) {\r\n        super(props);\r\n        console.log(this.props.username);\r\n    }\r\n    \r\n    buttonClick(val){\r\n        console.log(val);\r\n        \r\n        this.myLatLng = {\r\n            lat : val.lat,\r\n            lng : val.lng\r\n        }\r\n        if(this.props.google){\r\n            console.log(this.props.google);\r\n        }  \r\n    }\r\n    render() {\r\n        let cityList = [\r\n            {\r\n                id : 1, \r\n                name : 'Delhi',\r\n                lat : '28.7041',\r\n                lng : '77.1025'\r\n            },\r\n            {\r\n                id : 2, \r\n                name : 'Mumbai',\r\n                lat : '19.0760',\r\n                lng : '72.8777'\r\n            },\r\n            {\r\n                id : 3, \r\n                name : 'Kolkata',\r\n                lat : '22.5726',\r\n                lng : '88.3639'\r\n            },\r\n            {\r\n                id : 4,\r\n                name : 'Channai',\r\n                lat : '13.0827',\r\n                lng : '80.2707'\r\n            },\r\n            {\r\n                id : 5,\r\n                name : 'Pune',\r\n                lat : '18.5204',\r\n                lng : '73.8567'\r\n            },\r\n            {\r\n                id : 6, \r\n                name : 'Bangalore',\r\n                lat : '12.9716',\r\n                lng : '77.5946'\r\n            },\r\n            {\r\n                id : 7,\r\n                name : 'Hyderabad',\r\n                lat : '17.3850',\r\n                lng : '78.4867'\r\n            },\r\n            {\r\n                id : 8,\r\n                name : 'Kochi',\r\n                lat : '9.9312',\r\n                lng : '76.2673'\r\n            },       \r\n    \r\n        ];\r\n        let cityNames = cityList.map(data => {\r\n            return (\r\n                <li key={data.id}><a href=\"#\" style={{ textDecoration: 'none' } } onClick={() => this.buttonClick(data)}>{data.name}</a></li>\r\n            );\r\n        })\r\n        let displayMarkers = cityList.map(data => {\r\n            return (\r\n                <Marker key={data.id} position={{ lat : data.lat, lng : data.lng}} />\r\n            );\r\n        })\r\n        var points = [\r\n            { lat: 22.02, lng: 77.01 },\r\n            { lat: 22.03, lng: 77.02 },\r\n            { lat: 22.03, lng: 77.04 },\r\n            { lat: 22.05, lng: 77.02 }\r\n        ];\r\n        var bounds = new this.props.google.maps.LatLngBounds();\r\n        for (var i = 0; i < points.length; i++) {\r\n            bounds.extend(points[i]);\r\n}\r\n\r\n        return (\r\n            <Container>\r\n                <Jumbotron>\r\n                    <h3>Hello User {this.props.username} </h3>\r\n                </Jumbotron>\r\n                <Row>\r\n                    <Col>                        \r\n                        <h3>Lists Of Cities</h3>\r\n                        <ListGroup>\r\n                            <ListGroupItem active tag=\"a\" href=\"#\" action></ListGroupItem>\r\n                        </ListGroup>\r\n                        { /*<ul>\r\n                    {cityNames}\r\n                </ul> */}\r\n                    </Col>\r\n                    <Col>\r\n                        <Map id=\"mymap\"\r\n                            google={this.props.google}\r\n                            zoom={5}\r\n                            style={mapStyles}\r\n                            initialCenter={{ lat: 22.5726, lng: 77.3639 }}\r\n                            bounds={bounds}\r\n                        >\r\n                            {/* <Marker position={myLatLng} />\r\n                    <Marker position={{ lat : 19.0760,lng : 72.8777  }} /> */}\r\n                            {displayMarkers}\r\n                        </Map>\r\n                    </Col>\r\n                </Row>               \r\n            </Container>\r\n        );\r\n    }\r\n}\r\nexport default GoogleApiWrapper({\r\n    apiKey: 'AIzaSyAwu42ZjnzWV4-LQe5-t72Ujt3OykdqZ_w'\r\n  })(Dashboard);  "]},"metadata":{},"sourceType":"module"}