{"ast":null,"code":"var _jsxFileName = \"C:\\\\seemanti\\\\projects\\\\my-test-proj\\\\src\\\\dashboard.js\";\nimport React from 'react';\nimport { Map, GoogleApiWrapper, Marker } from 'google-maps-react';\nconst mapStyles = {\n  width: '100vh',\n  height: '100%'\n};\nlet myLatLng = {\n  lat: '22.5726',\n  lng: '88.3639'\n};\n\nclass Dashboard extends React.Component {\n  constructor(props) {\n    super(props);\n  }\n\n  buttonClick(val) {\n    console.log(val);\n    this.myLatLng = {\n      lat: val.lat,\n      lng: val.lng\n    };\n\n    if (this.props.google) {\n      console.log(this.props.google);\n    }\n  }\n\n  render() {\n    let cityList = [{\n      id: 1,\n      name: 'Delhi',\n      lat: '28.7041',\n      lng: '77.1025'\n    }, {\n      id: 2,\n      name: 'Mumbai',\n      lat: '19.0760',\n      lng: '72.8777'\n    }, {\n      id: 3,\n      name: 'Kolkata',\n      lat: '22.5726',\n      lng: '88.3639'\n    }, {\n      id: 4,\n      name: 'Channai',\n      lat: '13.0827',\n      lng: '80.2707'\n    }, {\n      id: 5,\n      name: 'Pune',\n      lat: '18.5204',\n      lng: '73.8567'\n    }, {\n      id: 6,\n      name: 'Bangalore',\n      lat: '12.9716',\n      lng: '77.5946'\n    }, {\n      id: 7,\n      name: 'Hyderabad',\n      lat: '17.3850',\n      lng: '78.4867'\n    }, {\n      id: 8,\n      name: 'Kochi',\n      lat: '9.9312',\n      lng: '76.2673'\n    }];\n    let cityNames = cityList.map(data => {\n      return React.createElement(\"li\", {\n        key: data.id,\n        __source: {\n          fileName: _jsxFileName,\n          lineNumber: 85\n        },\n        __self: this\n      }, React.createElement(\"a\", {\n        href: \"#\",\n        style: {\n          textDecoration: 'none'\n        },\n        onClick: () => this.buttonClick(data),\n        __source: {\n          fileName: _jsxFileName,\n          lineNumber: 85\n        },\n        __self: this\n      }, data.name));\n    });\n    let displayMarkers = cityList.map(data => {\n      return React.createElement(Marker, {\n        position: {\n          lat: data.lat,\n          lng: data.lng\n        },\n        __source: {\n          fileName: _jsxFileName,\n          lineNumber: 90\n        },\n        __self: this\n      });\n    });\n    var points = [{\n      lat: 22.02,\n      lng: 77.01\n    }, {\n      lat: 22.03,\n      lng: 77.02\n    }, {\n      lat: 22.03,\n      lng: 77.04\n    }, {\n      lat: 22.05,\n      lng: 77.02\n    }];\n    var bounds = new this.props.google.maps.LatLngBounds();\n\n    for (var i = 0; i < points.length; i++) {\n      bounds.extend(points[i]);\n    }\n\n    return React.createElement(\"div\", {\n      __source: {\n        fileName: _jsxFileName,\n        lineNumber: 105\n      },\n      __self: this\n    }, React.createElement(\"div\", {\n      __source: {\n        fileName: _jsxFileName,\n        lineNumber: 106\n      },\n      __self: this\n    }, \"Hello User \"), React.createElement(\"div\", {\n      style: {\n        width: '50%',\n        float: \"left\"\n      },\n      __source: {\n        fileName: _jsxFileName,\n        lineNumber: 107\n      },\n      __self: this\n    }, \"Lists Of Cities\", React.createElement(\"ul\", {\n      __source: {\n        fileName: _jsxFileName,\n        lineNumber: 108\n      },\n      __self: this\n    }, cityNames)), React.createElement(\"div\", {\n      style: {\n        width: '50%',\n        float: \"left\"\n      },\n      __source: {\n        fileName: _jsxFileName,\n        lineNumber: 112\n      },\n      __self: this\n    }, React.createElement(Map, {\n      id: \"mymap\",\n      google: this.props.google,\n      zoom: 5,\n      style: mapStyles,\n      initialCenter: {\n        lat: 22.5726,\n        lng: 77.3639\n      },\n      bounds: bounds,\n      __source: {\n        fileName: _jsxFileName,\n        lineNumber: 113\n      },\n      __self: this\n    }, displayMarkers)));\n  }\n\n}\n\nexport default GoogleApiWrapper({\n  apiKey: 'AIzaSyAwu42ZjnzWV4-LQe5-t72Ujt3OykdqZ_w'\n})(Dashboard);","map":{"version":3,"sources":["C:/seemanti/projects/my-test-proj/src/dashboard.js"],"names":["React","Map","GoogleApiWrapper","Marker","mapStyles","width","height","myLatLng","lat","lng","Dashboard","Component","constructor","props","buttonClick","val","console","log","google","render","cityList","id","name","cityNames","map","data","textDecoration","displayMarkers","points","bounds","maps","LatLngBounds","i","length","extend","float","apiKey"],"mappings":";AAAA,OAAOA,KAAP,MAAkB,OAAlB;AACA,SAASC,GAAT,EAAcC,gBAAd,EAAgCC,MAAhC,QAA8C,mBAA9C;AAEA,MAAMC,SAAS,GAAG;AACdC,EAAAA,KAAK,EAAE,OADO;AAEdC,EAAAA,MAAM,EAAE;AAFM,CAAlB;AAKA,IAAIC,QAAQ,GAAG;AACXC,EAAAA,GAAG,EAAE,SADM;AAEXC,EAAAA,GAAG,EAAE;AAFM,CAAf;;AAKA,MAAMC,SAAN,SAAwBV,KAAK,CAACW,SAA9B,CAAwC;AAEpCC,EAAAA,WAAW,CAACC,KAAD,EAAQ;AACf,UAAMA,KAAN;AACH;;AAEDC,EAAAA,WAAW,CAACC,GAAD,EAAK;AACZC,IAAAA,OAAO,CAACC,GAAR,CAAYF,GAAZ;AAEA,SAAKR,QAAL,GAAgB;AACZC,MAAAA,GAAG,EAAGO,GAAG,CAACP,GADE;AAEZC,MAAAA,GAAG,EAAGM,GAAG,CAACN;AAFE,KAAhB;;AAIA,QAAG,KAAKI,KAAL,CAAWK,MAAd,EAAqB;AACjBF,MAAAA,OAAO,CAACC,GAAR,CAAY,KAAKJ,KAAL,CAAWK,MAAvB;AACH;AACJ;;AACDC,EAAAA,MAAM,GAAG;AACL,QAAIC,QAAQ,GAAG,CACX;AACIC,MAAAA,EAAE,EAAG,CADT;AAEIC,MAAAA,IAAI,EAAG,OAFX;AAGId,MAAAA,GAAG,EAAG,SAHV;AAIIC,MAAAA,GAAG,EAAG;AAJV,KADW,EAOX;AACIY,MAAAA,EAAE,EAAG,CADT;AAEIC,MAAAA,IAAI,EAAG,QAFX;AAGId,MAAAA,GAAG,EAAG,SAHV;AAIIC,MAAAA,GAAG,EAAG;AAJV,KAPW,EAaX;AACIY,MAAAA,EAAE,EAAG,CADT;AAEIC,MAAAA,IAAI,EAAG,SAFX;AAGId,MAAAA,GAAG,EAAG,SAHV;AAIIC,MAAAA,GAAG,EAAG;AAJV,KAbW,EAmBX;AACIY,MAAAA,EAAE,EAAG,CADT;AAEIC,MAAAA,IAAI,EAAG,SAFX;AAGId,MAAAA,GAAG,EAAG,SAHV;AAIIC,MAAAA,GAAG,EAAG;AAJV,KAnBW,EAyBX;AACIY,MAAAA,EAAE,EAAG,CADT;AAEIC,MAAAA,IAAI,EAAG,MAFX;AAGId,MAAAA,GAAG,EAAG,SAHV;AAIIC,MAAAA,GAAG,EAAG;AAJV,KAzBW,EA+BX;AACIY,MAAAA,EAAE,EAAG,CADT;AAEIC,MAAAA,IAAI,EAAG,WAFX;AAGId,MAAAA,GAAG,EAAG,SAHV;AAIIC,MAAAA,GAAG,EAAG;AAJV,KA/BW,EAqCX;AACIY,MAAAA,EAAE,EAAG,CADT;AAEIC,MAAAA,IAAI,EAAG,WAFX;AAGId,MAAAA,GAAG,EAAG,SAHV;AAIIC,MAAAA,GAAG,EAAG;AAJV,KArCW,EA2CX;AACIY,MAAAA,EAAE,EAAG,CADT;AAEIC,MAAAA,IAAI,EAAG,OAFX;AAGId,MAAAA,GAAG,EAAG,QAHV;AAIIC,MAAAA,GAAG,EAAG;AAJV,KA3CW,CAAf;AAmDA,QAAIc,SAAS,GAAGH,QAAQ,CAACI,GAAT,CAAaC,IAAI,IAAI;AACjC,aACI;AAAI,QAAA,GAAG,EAAEA,IAAI,CAACJ,EAAd;AAAA;AAAA;AAAA;AAAA;AAAA;AAAA,SAAkB;AAAG,QAAA,IAAI,EAAC,GAAR;AAAY,QAAA,KAAK,EAAE;AAAEK,UAAAA,cAAc,EAAE;AAAlB,SAAnB;AAAgD,QAAA,OAAO,EAAE,MAAM,KAAKZ,WAAL,CAAiBW,IAAjB,CAA/D;AAAA;AAAA;AAAA;AAAA;AAAA;AAAA,SAAwFA,IAAI,CAACH,IAA7F,CAAlB,CADJ;AAGH,KAJe,CAAhB;AAKA,QAAIK,cAAc,GAAGP,QAAQ,CAACI,GAAT,CAAaC,IAAI,IAAI;AACtC,aACI,oBAAC,MAAD;AAAQ,QAAA,QAAQ,EAAE;AAAEjB,UAAAA,GAAG,EAAGiB,IAAI,CAACjB,GAAb;AAAkBC,UAAAA,GAAG,EAAGgB,IAAI,CAAChB;AAA7B,SAAlB;AAAA;AAAA;AAAA;AAAA;AAAA;AAAA,QADJ;AAGH,KAJoB,CAArB;AAKA,QAAImB,MAAM,GAAG,CACT;AAAEpB,MAAAA,GAAG,EAAE,KAAP;AAAcC,MAAAA,GAAG,EAAE;AAAnB,KADS,EAET;AAAED,MAAAA,GAAG,EAAE,KAAP;AAAcC,MAAAA,GAAG,EAAE;AAAnB,KAFS,EAGT;AAAED,MAAAA,GAAG,EAAE,KAAP;AAAcC,MAAAA,GAAG,EAAE;AAAnB,KAHS,EAIT;AAAED,MAAAA,GAAG,EAAE,KAAP;AAAcC,MAAAA,GAAG,EAAE;AAAnB,KAJS,CAAb;AAMA,QAAIoB,MAAM,GAAG,IAAI,KAAKhB,KAAL,CAAWK,MAAX,CAAkBY,IAAlB,CAAuBC,YAA3B,EAAb;;AACA,SAAK,IAAIC,CAAC,GAAG,CAAb,EAAgBA,CAAC,GAAGJ,MAAM,CAACK,MAA3B,EAAmCD,CAAC,EAApC,EAAwC;AACpCH,MAAAA,MAAM,CAACK,MAAP,CAAcN,MAAM,CAACI,CAAD,CAApB;AACX;;AAEO,WACI;AAAA;AAAA;AAAA;AAAA;AAAA;AAAA,OACI;AAAA;AAAA;AAAA;AAAA;AAAA;AAAA,qBADJ,EAEI;AAAK,MAAA,KAAK,EAAE;AAAC3B,QAAAA,KAAK,EAAE,KAAR;AAAe8B,QAAAA,KAAK,EAAG;AAAvB,OAAZ;AAAA;AAAA;AAAA;AAAA;AAAA;AAAA,0BACA;AAAA;AAAA;AAAA;AAAA;AAAA;AAAA,OACKZ,SADL,CADA,CAFJ,EAOI;AAAK,MAAA,KAAK,EAAE;AAAClB,QAAAA,KAAK,EAAE,KAAR;AAAe8B,QAAAA,KAAK,EAAG;AAAvB,OAAZ;AAAA;AAAA;AAAA;AAAA;AAAA;AAAA,OACA,oBAAC,GAAD;AAAK,MAAA,EAAE,EAAC,OAAR;AACI,MAAA,MAAM,EAAE,KAAKtB,KAAL,CAAWK,MADvB;AAEI,MAAA,IAAI,EAAE,CAFV;AAGI,MAAA,KAAK,EAAEd,SAHX;AAII,MAAA,aAAa,EAAE;AAAEI,QAAAA,GAAG,EAAE,OAAP;AAAgBC,QAAAA,GAAG,EAAE;AAArB,OAJnB;AAKI,MAAA,MAAM,EAAEoB,MALZ;AAAA;AAAA;AAAA;AAAA;AAAA;AAAA,OASKF,cATL,CADA,CAPJ,CADJ;AAuBH;;AAjHmC;;AAmHxC,eAAezB,gBAAgB,CAAC;AAC5BkC,EAAAA,MAAM,EAAE;AADoB,CAAD,CAAhB,CAEV1B,SAFU,CAAf","sourcesContent":["import React from 'react';\r\nimport { Map, GoogleApiWrapper, Marker } from 'google-maps-react';\r\n\r\nconst mapStyles = {\r\n    width: '100vh',\r\n    height: '100%'\r\n}\r\n\r\nlet myLatLng = {\r\n    lat: '22.5726',\r\n    lng: '88.3639'\r\n};\r\n   \r\nclass Dashboard extends React.Component {\r\n\r\n    constructor(props) {\r\n        super(props)\r\n    }\r\n\r\n    buttonClick(val){\r\n        console.log(val);\r\n        \r\n        this.myLatLng = {\r\n            lat : val.lat,\r\n            lng : val.lng\r\n        }\r\n        if(this.props.google){\r\n            console.log(this.props.google);\r\n        }  \r\n    }\r\n    render() {\r\n        let cityList = [\r\n            {\r\n                id : 1, \r\n                name : 'Delhi',\r\n                lat : '28.7041',\r\n                lng : '77.1025'\r\n            },\r\n            {\r\n                id : 2, \r\n                name : 'Mumbai',\r\n                lat : '19.0760',\r\n                lng : '72.8777'\r\n            },\r\n            {\r\n                id : 3, \r\n                name : 'Kolkata',\r\n                lat : '22.5726',\r\n                lng : '88.3639'\r\n            },\r\n            {\r\n                id : 4,\r\n                name : 'Channai',\r\n                lat : '13.0827',\r\n                lng : '80.2707'\r\n            },\r\n            {\r\n                id : 5,\r\n                name : 'Pune',\r\n                lat : '18.5204',\r\n                lng : '73.8567'\r\n            },\r\n            {\r\n                id : 6, \r\n                name : 'Bangalore',\r\n                lat : '12.9716',\r\n                lng : '77.5946'\r\n            },\r\n            {\r\n                id : 7,\r\n                name : 'Hyderabad',\r\n                lat : '17.3850',\r\n                lng : '78.4867'\r\n            },\r\n            {\r\n                id : 8,\r\n                name : 'Kochi',\r\n                lat : '9.9312',\r\n                lng : '76.2673'\r\n            },       \r\n    \r\n        ];\r\n        let cityNames = cityList.map(data => {\r\n            return (\r\n                <li key={data.id}><a href=\"#\" style={{ textDecoration: 'none' } } onClick={() => this.buttonClick(data)}>{data.name}</a></li>\r\n            );\r\n        })\r\n        let displayMarkers = cityList.map(data => {\r\n            return (\r\n                <Marker position={{ lat : data.lat, lng : data.lng}} />\r\n            );\r\n        })\r\n        var points = [\r\n            { lat: 22.02, lng: 77.01 },\r\n            { lat: 22.03, lng: 77.02 },\r\n            { lat: 22.03, lng: 77.04 },\r\n            { lat: 22.05, lng: 77.02 }\r\n        ];\r\n        var bounds = new this.props.google.maps.LatLngBounds();\r\n        for (var i = 0; i < points.length; i++) {\r\n            bounds.extend(points[i]);\r\n}\r\n\r\n        return (\r\n            <div>\r\n                <div>Hello User </div>\r\n                <div style={{width: '50%', float : \"left\"}}>Lists Of Cities\r\n                <ul>\r\n                    {cityNames}\r\n                </ul>\r\n                </div>\r\n                <div style={{width: '50%', float : \"left\" }}>\r\n                <Map id=\"mymap\"\r\n                    google={this.props.google}\r\n                    zoom={5}\r\n                    style={mapStyles}\r\n                    initialCenter={{ lat: 22.5726, lng: 77.3639 }}\r\n                    bounds={bounds}\r\n                >\r\n                    {/* <Marker position={myLatLng} />\r\n                    <Marker position={{ lat : 19.0760,lng : 72.8777  }} /> */}\r\n                    {displayMarkers}\r\n                </Map>\r\n                </div>\r\n            </div>\r\n        );\r\n    }\r\n}\r\nexport default GoogleApiWrapper({\r\n    apiKey: 'AIzaSyAwu42ZjnzWV4-LQe5-t72Ujt3OykdqZ_w'\r\n  })(Dashboard);  "]},"metadata":{},"sourceType":"module"}