{"ast":null,"code":"var _jsxFileName = \"C:\\\\seemanti\\\\projects\\\\my-test-proj\\\\src\\\\dashboard.js\";\nimport React from 'react';\nimport { Map, GoogleApiWrapper, Marker } from 'google-maps-react';\nconst mapStyles = {\n  width: '100vh',\n  height: '100%'\n};\n\nclass Dashboard extends React.Component {\n  buttonClick(name) {\n    console.log(name);\n    this.loadMap();\n  }\n\n  loadMap() {\n    if (this.props.google) {\n      console.log(this.props.google.Marker());\n    }\n  }\n\n  render() {\n    let cityList = [{\n      id: 1,\n      name: 'Delhi',\n      lat: '28.7041',\n      lng: '77.1025'\n    }, {\n      id: 2,\n      name: 'Mumbai',\n      lat: '19.0760',\n      lng: '72.8777'\n    }, {\n      id: 3,\n      name: 'Kolkata',\n      lat: '22.5726',\n      lng: '88.3639'\n    }, {\n      id: 4,\n      name: 'Channai',\n      lat: '13.0827',\n      lng: '80.2707'\n    }, {\n      id: 5,\n      name: 'Pune',\n      lat: '18.5204',\n      lng: '73.8567'\n    }, {\n      id: 6,\n      name: 'Bangalore',\n      lat: '12.9716',\n      lng: '77.5946'\n    }, {\n      id: 7,\n      name: 'Hyderabad',\n      lat: '17.3850',\n      lng: '78.4867'\n    }, {\n      id: 8,\n      name: 'Kochi',\n      lat: '9.9312',\n      lng: '76.2673'\n    }];\n    const cityNames = cityList.map(data => {\n      return React.createElement(\"li\", {\n        key: data.id,\n        __source: {\n          fileName: _jsxFileName,\n          lineNumber: 73\n        },\n        __self: this\n      }, React.createElement(\"a\", {\n        href: \"#\",\n        style: {\n          textDecoration: 'none'\n        },\n        onClick: () => this.buttonClick(data),\n        __source: {\n          fileName: _jsxFileName,\n          lineNumber: 73\n        },\n        __self: this\n      }, data.name));\n    });\n    return React.createElement(\"div\", {\n      __source: {\n        fileName: _jsxFileName,\n        lineNumber: 77\n      },\n      __self: this\n    }, React.createElement(\"div\", {\n      __source: {\n        fileName: _jsxFileName,\n        lineNumber: 78\n      },\n      __self: this\n    }, \"Hello User \"), React.createElement(\"div\", {\n      style: {\n        width: '50%',\n        float: \"left\"\n      },\n      __source: {\n        fileName: _jsxFileName,\n        lineNumber: 79\n      },\n      __self: this\n    }, \"Lists Of Cities\", React.createElement(\"ul\", {\n      __source: {\n        fileName: _jsxFileName,\n        lineNumber: 80\n      },\n      __self: this\n    }, cityNames)), React.createElement(\"div\", {\n      style: {\n        width: '50%',\n        float: \"left\"\n      },\n      __source: {\n        fileName: _jsxFileName,\n        lineNumber: 84\n      },\n      __self: this\n    }, React.createElement(Map, {\n      google: this.props.google,\n      zoom: 11,\n      style: mapStyles,\n      initialCenter: {\n        lat: 22.5726,\n        lng: 88.3639\n      },\n      __source: {\n        fileName: _jsxFileName,\n        lineNumber: 85\n      },\n      __self: this\n    }, React.createElement(Marker, {\n      position: {\n        lat: 22.5726,\n        lng: 88.3639\n      },\n      __source: {\n        fileName: _jsxFileName,\n        lineNumber: 91\n      },\n      __self: this\n    }))));\n  }\n\n}\n\nexport default GoogleApiWrapper({\n  apiKey: 'AIzaSyAwu42ZjnzWV4-LQe5-t72Ujt3OykdqZ_w'\n})(Dashboard);","map":{"version":3,"sources":["C:/seemanti/projects/my-test-proj/src/dashboard.js"],"names":["React","Map","GoogleApiWrapper","Marker","mapStyles","width","height","Dashboard","Component","buttonClick","name","console","log","loadMap","props","google","render","cityList","id","lat","lng","cityNames","map","data","textDecoration","float","apiKey"],"mappings":";AAAA,OAAOA,KAAP,MAAkB,OAAlB;AACA,SAASC,GAAT,EAAcC,gBAAd,EAAgCC,MAAhC,QAA8C,mBAA9C;AAEA,MAAMC,SAAS,GAAG;AACdC,EAAAA,KAAK,EAAE,OADO;AAEdC,EAAAA,MAAM,EAAE;AAFM,CAAlB;;AAKA,MAAMC,SAAN,SAAwBP,KAAK,CAACQ,SAA9B,CAAwC;AACpCC,EAAAA,WAAW,CAACC,IAAD,EAAM;AACbC,IAAAA,OAAO,CAACC,GAAR,CAAYF,IAAZ;AACA,SAAKG,OAAL;AACH;;AACDA,EAAAA,OAAO,GAAE;AACL,QAAG,KAAKC,KAAL,CAAWC,MAAd,EAAqB;AACjBJ,MAAAA,OAAO,CAACC,GAAR,CAAY,KAAKE,KAAL,CAAWC,MAAX,CAAkBZ,MAAlB,EAAZ;AACH;AACJ;;AACDa,EAAAA,MAAM,GAAG;AACL,QAAIC,QAAQ,GAAG,CACX;AACIC,MAAAA,EAAE,EAAG,CADT;AAEIR,MAAAA,IAAI,EAAG,OAFX;AAGIS,MAAAA,GAAG,EAAG,SAHV;AAIIC,MAAAA,GAAG,EAAG;AAJV,KADW,EAOX;AACIF,MAAAA,EAAE,EAAG,CADT;AAEIR,MAAAA,IAAI,EAAG,QAFX;AAGIS,MAAAA,GAAG,EAAG,SAHV;AAIIC,MAAAA,GAAG,EAAG;AAJV,KAPW,EAaX;AACIF,MAAAA,EAAE,EAAG,CADT;AAEIR,MAAAA,IAAI,EAAG,SAFX;AAGIS,MAAAA,GAAG,EAAG,SAHV;AAIIC,MAAAA,GAAG,EAAG;AAJV,KAbW,EAmBX;AACIF,MAAAA,EAAE,EAAG,CADT;AAEIR,MAAAA,IAAI,EAAG,SAFX;AAGIS,MAAAA,GAAG,EAAG,SAHV;AAIIC,MAAAA,GAAG,EAAG;AAJV,KAnBW,EAyBX;AACIF,MAAAA,EAAE,EAAG,CADT;AAEIR,MAAAA,IAAI,EAAG,MAFX;AAGIS,MAAAA,GAAG,EAAG,SAHV;AAIIC,MAAAA,GAAG,EAAG;AAJV,KAzBW,EA+BX;AACIF,MAAAA,EAAE,EAAG,CADT;AAEIR,MAAAA,IAAI,EAAG,WAFX;AAGIS,MAAAA,GAAG,EAAG,SAHV;AAIIC,MAAAA,GAAG,EAAG;AAJV,KA/BW,EAqCX;AACIF,MAAAA,EAAE,EAAG,CADT;AAEIR,MAAAA,IAAI,EAAG,WAFX;AAGIS,MAAAA,GAAG,EAAG,SAHV;AAIIC,MAAAA,GAAG,EAAG;AAJV,KArCW,EA2CX;AACIF,MAAAA,EAAE,EAAG,CADT;AAEIR,MAAAA,IAAI,EAAG,OAFX;AAGIS,MAAAA,GAAG,EAAG,QAHV;AAIIC,MAAAA,GAAG,EAAG;AAJV,KA3CW,CAAf;AAmDA,UAAMC,SAAS,GAAGJ,QAAQ,CAACK,GAAT,CAAaC,IAAI,IAAI;AACnC,aACI;AAAI,QAAA,GAAG,EAAEA,IAAI,CAACL,EAAd;AAAA;AAAA;AAAA;AAAA;AAAA;AAAA,SAAkB;AAAG,QAAA,IAAI,EAAC,GAAR;AAAY,QAAA,KAAK,EAAE;AAAEM,UAAAA,cAAc,EAAE;AAAlB,SAAnB;AAAgD,QAAA,OAAO,EAAE,MAAM,KAAKf,WAAL,CAAiBc,IAAjB,CAA/D;AAAA;AAAA;AAAA;AAAA;AAAA;AAAA,SAAwFA,IAAI,CAACb,IAA7F,CAAlB,CADJ;AAGH,KAJiB,CAAlB;AAKA,WACI;AAAA;AAAA;AAAA;AAAA;AAAA;AAAA,OACI;AAAA;AAAA;AAAA;AAAA;AAAA;AAAA,qBADJ,EAEI;AAAK,MAAA,KAAK,EAAE;AAACL,QAAAA,KAAK,EAAE,KAAR;AAAeoB,QAAAA,KAAK,EAAG;AAAvB,OAAZ;AAAA;AAAA;AAAA;AAAA;AAAA;AAAA,0BACA;AAAA;AAAA;AAAA;AAAA;AAAA;AAAA,OACKJ,SADL,CADA,CAFJ,EAOI;AAAK,MAAA,KAAK,EAAE;AAAChB,QAAAA,KAAK,EAAE,KAAR;AAAeoB,QAAAA,KAAK,EAAG;AAAvB,OAAZ;AAAA;AAAA;AAAA;AAAA;AAAA;AAAA,OACA,oBAAC,GAAD;AACI,MAAA,MAAM,EAAE,KAAKX,KAAL,CAAWC,MADvB;AAEI,MAAA,IAAI,EAAE,EAFV;AAGI,MAAA,KAAK,EAAEX,SAHX;AAII,MAAA,aAAa,EAAE;AAAEe,QAAAA,GAAG,EAAE,OAAP;AAAgBC,QAAAA,GAAG,EAAE;AAArB,OAJnB;AAAA;AAAA;AAAA;AAAA;AAAA;AAAA,OAMI,oBAAC,MAAD;AAAQ,MAAA,QAAQ,EAAE;AAAED,QAAAA,GAAG,EAAE,OAAP;AAAgBC,QAAAA,GAAG,EAAE;AAArB,OAAlB;AAAA;AAAA;AAAA;AAAA;AAAA;AAAA,MANJ,CADA,CAPJ,CADJ;AAoBH;;AAvFmC;;AAyFxC,eAAelB,gBAAgB,CAAC;AAC5BwB,EAAAA,MAAM,EAAE;AADoB,CAAD,CAAhB,CAEVnB,SAFU,CAAf","sourcesContent":["import React from 'react';\r\nimport { Map, GoogleApiWrapper, Marker } from 'google-maps-react';\r\n\r\nconst mapStyles = {\r\n    width: '100vh',\r\n    height: '100%'\r\n}\r\n   \r\nclass Dashboard extends React.Component {\r\n    buttonClick(name){\r\n        console.log(name);\r\n        this.loadMap();\r\n    }\r\n    loadMap(){\r\n        if(this.props.google){\r\n            console.log(this.props.google.Marker());\r\n        }      \r\n    }\r\n    render() {\r\n        let cityList = [\r\n            {\r\n                id : 1, \r\n                name : 'Delhi',\r\n                lat : '28.7041',\r\n                lng : '77.1025'\r\n            },\r\n            {\r\n                id : 2, \r\n                name : 'Mumbai',\r\n                lat : '19.0760',\r\n                lng : '72.8777'\r\n            },\r\n            {\r\n                id : 3, \r\n                name : 'Kolkata',\r\n                lat : '22.5726',\r\n                lng : '88.3639'\r\n            },\r\n            {\r\n                id : 4,\r\n                name : 'Channai',\r\n                lat : '13.0827',\r\n                lng : '80.2707'\r\n            },\r\n            {\r\n                id : 5,\r\n                name : 'Pune',\r\n                lat : '18.5204',\r\n                lng : '73.8567'\r\n            },\r\n            {\r\n                id : 6, \r\n                name : 'Bangalore',\r\n                lat : '12.9716',\r\n                lng : '77.5946'\r\n            },\r\n            {\r\n                id : 7,\r\n                name : 'Hyderabad',\r\n                lat : '17.3850',\r\n                lng : '78.4867'\r\n            },\r\n            {\r\n                id : 8,\r\n                name : 'Kochi',\r\n                lat : '9.9312',\r\n                lng : '76.2673'\r\n            },       \r\n    \r\n        ];\r\n        const cityNames = cityList.map(data => {\r\n            return (\r\n                <li key={data.id}><a href=\"#\" style={{ textDecoration: 'none' } } onClick={() => this.buttonClick(data)}>{data.name}</a></li>\r\n            );\r\n        })\r\n        return (\r\n            <div>\r\n                <div>Hello User </div>\r\n                <div style={{width: '50%', float : \"left\"}}>Lists Of Cities\r\n                <ul>\r\n                    {cityNames}\r\n                </ul>\r\n                </div>\r\n                <div style={{width: '50%', float : \"left\" }}>\r\n                <Map\r\n                    google={this.props.google}\r\n                    zoom={11}\r\n                    style={mapStyles}\r\n                    initialCenter={{ lat: 22.5726, lng: 88.3639 }}\r\n                >\r\n                    <Marker position={{ lat: 22.5726, lng: 88.3639 }} />\r\n                </Map>\r\n                </div>\r\n            </div>\r\n        );\r\n    }\r\n}\r\nexport default GoogleApiWrapper({\r\n    apiKey: 'AIzaSyAwu42ZjnzWV4-LQe5-t72Ujt3OykdqZ_w'\r\n  })(Dashboard);  "]},"metadata":{},"sourceType":"module"}